[{"city": "MARAU/RS", "zip": "99150000", "cnpj": "05355883000176", "brand": "IPIRANGA", "company_name": "CORDAZZO COMBUST\u00cdVEIS LTDA", "address": "AVENIDA JULIO BORELLA  305", "formatted_address": "Avenida J\u00falio Borela, 305 - Loteamento Girardi, Marau - RS, 99150-000, Brasil", "location": {"lat": -28.4397885, "lng": -52.1999514}}, {"city": "PELOTAS/RS", "zip": "96077000", "cnpj": "14448602000110", "brand": "IPIRANGA", "company_name": "POSTO DE COMBUST\u00cdVEIS UMUHARAMA LTDA", "address": "RUA VISCONDE DE OURO PRETO  46", "formatted_address": "Rua Visconde de Ouro Preto, 46 - Bom Jesus, Pelotas - RS, Brasil", "location": {"lat": -31.75694799999999, "lng": -52.30828409999999}}, {"city": "PORTO ALEGRE/RS", "zip": "91340070", "cnpj": "03299835000182", "brand": "PETROBRAS DISTRIBUIDORA S.A.", "company_name": "POSTO DE COMBUST\u00cdVEIS DEA LTDA.", "address": "RUA J. THADEO ONAR  35", "formatted_address": "Rua Thadeu Onar - Vila Ipiranga, Porto Alegre - RS, Brasil", "location": {"lat": -30.0227339, "lng": -51.1613249}}, {"city": "PORTO ALEGRE/RS", "zip": "91010003", "cnpj": "11279021000104", "brand": "IPIRANGA", "company_name": "COMERCIAL DE COMBUSTIVEIS ESSEN LTDA", "address": "AVENIDA ASSIS BRASIL  3248", "formatted_address": "Avenida Assis Brasil, 3248 - Passo d'Areia, Porto Alegre - RS, Brasil", "location": {"lat": -30.0103027, "lng": -51.1546213}}, {"city": "SAPIRANGA/RS", "zip": "93800000", "cnpj": "96735022000330", "brand": "IPIRANGA", "company_name": "AUTO SERVI\u00c7O LINDOLFO COLLOR LTDA.", "address": "RODOVIA 239  4051", "formatted_address": "Rodovia Rs 239, 4051 - Santa Fe, Sapiranga - RS, 93800-000, Brasil", "location": {"lat": -29.64447, "lng": -51.0112237}}, {"city": "CAXIAS DO SUL/RS", "zip": "95020472", "cnpj": "07045078000171", "brand": "IPIRANGA", "company_name": "POSTO DEMARI LTDA.", "address": "RUA OS DEZOITO DO FORTE  2201", "formatted_address": "Rua Os Dezoito do Forte, 2201 - S\u00e3o Pelegrino, Caxias do Sul - RS, 95020-472, Brasil", "location": {"lat": -29.1699017, "lng": -51.1835487}}, {"city": "CAMPO BOM/RS", "zip": "93700000", "cnpj": "13104571000118", "brand": "IPIRANGA", "company_name": "POSTO DE COMBUST\u00cdVEIS ALLMANESS LTDA.", "address": "AVENIDA DOS ESTADOS  2435", "formatted_address": "Avenida Dos Estados, 2435 - R, Campo Bom - RS, Brasil", "location": {"lat": -29.6743813, "lng": -51.06685239999999}}, {"city": "PORTO ALEGRE/RS", "zip": "90280080", "cnpj": "13793895000100", "brand": "IPIRANGA", "company_name": "R. TAUBE POSTO DE COMBUST\u00cdVEIS E CONVENI\u00caNCIAS LTDA.", "address": "AVENIDA CHUI  75", "formatted_address": "Avenida Chu\u00ed, 75 - Cristal, Porto Alegre - RS, 90820-080, Brasil", "location": {"lat": -30.0821142, "lng": -51.2437416}}, {"city": "VERA CRUZ/RS", "zip": "96880000", "cnpj": "02906922000198", "brand": "IPIRANGA", "company_name": "GIOVANE F. PICK & CIA. LTDA.", "address": "RUA CLAUDIO MANOEL  325", "formatted_address": "Rua Cl\u00e1udio Manoel, 325 - Centro, Vera Cruz - RS, 96880-000, Brasil", "location": {"lat": -29.7167034, "lng": -52.5046318}}, {"city": "TAQUARA/RS", "zip": "95600000", "cnpj": "00577065000366", "brand": "IPIRANGA", "company_name": "ABASTECEDORA FAGUNDES LTDA.", "address": "AVENIDA SEBASTI\u00c3O AMORETTI  2323", "formatted_address": "Taquara - RS, Brasil", "location": {"lat": -29.6509722, "lng": -50.77578440000001}}, {"city": "PORTO ALEGRE/RS", "zip": "91330000", "cnpj": "00851536000110", "brand": "IPIRANGA", "company_name": "POSTO DE SERVI\u00c7OS ANCHIETA LTDA", "address": "AVENIDA NILO PE\u00c7ANHA  1342", "formatted_address": "Avenida Nilo Pe\u00e7anha, 1342 - Petr\u00f3polis, Porto Alegre - RS, 91330-002, Brasil", "location": {"lat": -30.0284738, "lng": -51.1777234}}, {"city": "PORTO ALEGRE/RS", "zip": "90610270", "cnpj": "04307600000158", "brand": "IPIRANGA", "company_name": "DIAS FAURI & CIA LTDA", "address": "RUA SILVA S\u00d3  371", "formatted_address": "Rua Silva S\u00f3, 371 - Santa Cecilia, Porto Alegre - RS, Brasil", "location": {"lat": -30.0413295, "lng": -51.2041196}}, {"city": "FLORES DA CUNHA/RS", "zip": "95270000", "cnpj": "90059726000192", "brand": "IPIRANGA", "company_name": "AUTO POSTO GUARESE LTDA", "address": "AVENIDA 25  DE JULHO  2049", "formatted_address": "Avenida Vinte e Cinco de Julho, 2049 - Centro, Flores da Cunha - RS, 95270-000, Brasil", "location": {"lat": -29.0341968, "lng": -51.1812173}}, {"city": "TAPERA/RS", "zip": "99490000", "cnpj": "87633046000126", "brand": "PETROBRAS DISTRIBUIDORA S.A.", "company_name": "AUTO POSTO SIMON LTDA.", "address": "RODOVIA RS 223  S/N KM 27", "formatted_address": "RS-223, Tapera - RS, Brasil", "location": {"lat": -28.6381016, "lng": -52.8440464}}, {"city": "BOM PRINCIPIO/RS", "zip": "95765000", "cnpj": "03857424000246", "brand": "PETROBRAS DISTRIBUIDORA S.A.", "company_name": "ZANLUCHI ABASTECEDORA DE COMBUSTIVEIS LTDA", "address": "RODOVIA RS 122  S/N KM 29", "formatted_address": "RS-122, Bom Princ\u00edpio - RS, Brasil", "location": {"lat": -29.4688177, "lng": -51.3533961}}, {"city": "RIO GRANDE/RS", "zip": "96200010", "cnpj": "90719501000972", "brand": "IPIRANGA", "company_name": "ABASTECEDORA DE COMBUST\u00cdVEIS ONGARATTO LTDA.", "address": "RUA GENERAL NETO  555", "formatted_address": "Rua General Neto, 555 - Centro, Rio Grande - RS, 96200-010, Brasil", "location": {"lat": -32.0310695, "lng": -52.0977089}}, {"city": "URUGUAIANA/RS", "zip": "97500300", "cnpj": "04780762000451", "brand": "IPIRANGA", "company_name": "POSTO SAO MATHEUS LTDA", "address": "RUA FLORES DA CUNHA  2397", "formatted_address": "Rua General Fl\u00f4res da Cunha, 2397 - Centro, Uruguaiana - RS, Brasil", "location": {"lat": -29.7569752, "lng": -57.0799672}}, {"city": "PORTO ALEGRE/RS", "zip": "91130001", "cnpj": "92169218000192", "brand": "IPIRANGA", "company_name": "GARAGEM PARQUE DO ARVOREDO LTDA", "address": "AVENIDA BALTAZAR OLIVEIRA GARCIA  845/865", "formatted_address": "Avenida Baltazar de Oliveira Garc\u00eda, 845 - S\u00e3o Sebasti\u00e3o, Porto Alegre - RS, Brasil", "location": {"lat": -30.0101664, "lng": -51.13578810000001}}, {"city": "PORTO ALEGRE/RS", "zip": "91340001", "cnpj": "97094775000105", "brand": "IPIRANGA", "company_name": "SHOPPING COM ABAST PROD DE PETROLEO CS   LTDA", "address": "AVENIDA JOAO WALLIG  1903", "formatted_address": "Avenida Jo\u00e3o Wallig, 1903 - Passo d'Areia, Porto Alegre - RS, Brasil", "location": {"lat": -30.0284323, "lng": -51.1634967}}, {"city": "PORTO ALEGRE/RS", "zip": "90880481", "cnpj": "00355670000120", "brand": "IPIRANGA", "company_name": "POSTO DE COMBUSTIVEIS PEGASUS LTDA", "address": "AVENIDA JOSE DE ALENCAR  399 0", "formatted_address": "Rua Jos\u00e9 de Alen\u00e7ar, 399 - Menino Deus, Porto Alegre - RS, 90880-480, Brasil", "location": {"lat": -30.0598885, "lng": -51.2277893}}, {"city": "RIO GRANDE/RS", "zip": "96202100", "cnpj": "87001582000109", "brand": "IPIRANGA", "company_name": "UNIDOS COMERCIO DE COMBUST\u00cdVEIS LTDA", "address": "AVENIDA PRESIDENTE VARGAS  452 0", "formatted_address": "Avenida Presidente Vargas, 452 - Vila Juncao, Rio Grande - RS, 96202-100, Brasil", "location": {"lat": -32.0479845, "lng": -52.111856}}, {"city": "PORTO ALEGRE/RS", "zip": "91710000", "cnpj": "10770636000176", "brand": "IPIRANGA", "company_name": "MAM - COM\u00c9RCIO DE COMBUST\u00cdVEIS LTDA.", "address": "AVENIDA PROFESSOR OSCAR PEREIRA  2728", "formatted_address": "Avenida Professor Osc\u00e1r Pereira, 2728 - Gl\u00f3ria, Porto Alegre - RS, Brasil", "location": {"lat": -30.0743494, "lng": -51.20231020000001}}, {"city": "NOVO HAMBURGO/RS", "zip": "93336290", "cnpj": "09002103000246", "brand": "IPIRANGA", "company_name": "FILTRALUB COM\u00c9RCIO DE FILTROS E LUBRIFICANTES LTDA", "address": "RODOVIA BR 116  2979", "formatted_address": "BR-116, 2979 - Rio Branco, Novo Hamburgo - RS, Brasil", "location": {"lat": -29.6750583, "lng": -51.1427114}}, {"city": "PORTO ALEGRE/RS", "zip": "90550001", "cnpj": "92563931000116", "brand": "PETROBRAS DISTRIBUIDORA S.A.", "company_name": "GARAGE ALTO HIGIENOPOLIS LTDA", "address": "AVENIDA BENJAMIN CONSTANT  766 0", "formatted_address": "Avenida Benjamin Constant, 766 - S\u00e3o Jo\u00e3o, Porto Alegre - RS, 90550-003, Brasil", "location": {"lat": -30.0090723, "lng": -51.1923317}}, {"city": "OSORIO/RS", "zip": "95520000", "cnpj": "08542850000123", "brand": "IPIRANGA", "company_name": "KMI COM\u00c9RCIO DE COMBUST\u00cdVEIS LTDA.", "address": "RODOVIA RS 389  KM 1 LADO DIREITO DO SENTIDO OSORIO - TORRES", "formatted_address": "Os\u00f3rio - RS, Brasil", "location": {"lat": -29.8885929, "lng": -50.2672164}}, {"city": "PORTO ALEGRE/RS", "zip": "90560004", "cnpj": "02249201000152", "brand": "IPIRANGA", "company_name": "OURO NEGRO - COMERCIO E SERVI\u00c7OS LTDA", "address": "AVENIDA CRISTOVAO COLOMBO  1867", "formatted_address": "Avenida Crist\u00f3v\u00e3o Colombo, 1867 - Floresta, Porto Alegre - RS, 90560-003, Brasil", "location": {"lat": -30.0181772, "lng": -51.2021606}}, {"city": "SANTA CRUZ DO SUL/RS", "zip": "96825000", "cnpj": "89691059000349", "brand": "PETROBRAS DISTRIBUIDORA S.A.", "company_name": "MARQUETTO COM\u00c9RCIO DE COMBUST\u00cdVEIS LTDA.", "address": "RUA GASPAR SILVEIRA MARTINS  1500", "formatted_address": "Rua Gaspar Silveira Martins, 1500 - Margarida-Aurora, Santa Cruz do Sul - RS, Brasil", "location": {"lat": -29.7114624, "lng": -52.42319329999999}}, {"city": "OSORIO/RS", "zip": "95520000", "cnpj": "91872788000181", "brand": "IPIRANGA", "company_name": "WR COMERCIO DE COMBUST\u00cdVRIS LTDA.", "address": "RUA JULIO DE CASTILHOS  735", "formatted_address": "Rua J\u00falio de Castilhos, 735 - Centro, Os\u00f3rio - RS, 95520-000, Brasil", "location": {"lat": -29.8904797, "lng": -50.2717249}}, {"city": "PORTO ALEGRE/RS", "zip": "91900000", "cnpj": "05387681000106", "brand": "IPIRANGA", "company_name": "POSTO DE SERVI\u00c7OS IPIRANGUINHA LTDA.", "address": "AVENIDA WENCESLAU ESCOBAR  2226", "formatted_address": "Avenida Wenceslau Escobar, 2226 - Cristal, Porto Alegre - RS, Brasil", "location": {"lat": -30.1039877, "lng": -51.2527134}}, {"city": "CANOAS/RS", "zip": "92110001", "cnpj": "88905534000108", "brand": "PETROBRAS DISTRIBUIDORA S.A.", "company_name": "POSTO DE GASOLINA MARINGA LTDA", "address": "RUA VENANCIO AIRES  3560", "formatted_address": "Rua Ven\u00e2ncio A\u00edres, 3560 - Niter\u00f3i, Canoas - RS, Brasil", "location": {"lat": -29.929656, "lng": -51.1753726}}, {"city": "SAO BORJA/RS", "zip": "97670000", "cnpj": "12337944000138", "brand": "IPIRANGA", "company_name": "R. O. COMERCIAL DE COMBUSTIVEIS LTDA.", "address": "RUA APARICIO MARIENSE  2152 SALA B", "formatted_address": "Rua Coronel Apar\u00edcio Mariense, 2152, S\u00e3o Borja - RS, 97670-000, Brasil", "location": {"lat": -28.6615806, "lng": -56.010746}}, {"city": "BAGE/RS", "zip": "96405050", "cnpj": "93810919000121", "brand": "IPIRANGA", "company_name": "COMERCIAL INTERNACIONAL LTDA", "address": "RUA GAL.OSORIO  98", "formatted_address": "Avenida General Os\u00f3rio, 98 - Centro, Bag\u00e9 - RS, Brasil", "location": {"lat": -31.3189864, "lng": -54.1088907}}, {"city": "VACARIA/RS", "zip": "95200000", "cnpj": "88645635000197", "brand": "IPIRANGA", "company_name": "P.G. COM\u00c9RCIO E TRANSPORTESS DE COMBUST\u00cdVEIS LTDA.", "address": "AVENIDA MILITAR  2525", "formatted_address": "Avenida Militar, 2525 - Gl\u00f3ria, Vacaria - RS, 95200-000, Brasil", "location": {"lat": -28.500547, "lng": -50.9504227}}, {"city": "PORTO ALEGRE/RS", "zip": "90810080", "cnpj": "94583812000150", "brand": "PETROBRAS DISTRIBUIDORA S.A.", "company_name": "GARAGEM GET\u00daLIO VARGAS LTDA", "address": "AVENIDA DI\u00c1RIO DE NOT\u00cdCIAS  1475", "formatted_address": "Avenida Di\u00e1rio de Not\u00edcias, 1475 - Cristal, Porto Alegre - RS, 90810-080, Brasil", "location": {"lat": -30.0965082, "lng": -51.24895919999999}}, {"city": "NOVO HAMBURGO/RS", "zip": "93410130", "cnpj": "11751495000107", "brand": "IPIRANGA", "company_name": "PETROVIN POSTOS DE SERVI\u00c7OS LTDA.", "address": "RUA PARAIBA  211", "formatted_address": "Rua Para\u00edba, 211 - P\u00e1tria Nova, Novo Hamburgo - RS, Brasil", "location": {"lat": -29.6945633, "lng": -51.1274283}}, {"city": "SAO LEOPOLDO/RS", "zip": "93010010", "cnpj": "89470462000348", "brand": "IPIRANGA", "company_name": "ABASTECEDORA ABM LTDA.", "address": "AVENIDA DOM JOAO BECKER  170", "formatted_address": "Avenida Dom Jo\u00e3o Becker, 170 - Centro, S\u00e3o Leopoldo - RS, Brasil", "location": {"lat": -29.7598691, "lng": -51.1435967}}, {"city": "GRAVATAI/RS", "zip": "94065140", "cnpj": "94890647000180", "brand": "PETROBRAS DISTRIBUIDORA S.A.", "company_name": "POSTO ROTA 80 LTDA", "address": "RODOVIA BR 290  S/N KM 80", "formatted_address": "BR-290, Gravata\u00ed - RS, Brasil", "location": {"lat": -29.943036, "lng": -50.907563}}, {"city": "PELOTAS/RS", "zip": "96020080", "cnpj": "01989053000301", "brand": "IPIRANGA", "company_name": "HUGO CARLOS LANG FILHO & CIA. LTDA.", "address": "RUA ANDRADE NEVES  3696", "formatted_address": "Rua Andrade Neves, 3696 - Centro, Pelotas - RS, 96020-080, Brasil", "location": {"lat": -31.75079779999999, "lng": -52.3349785}}, {"city": "BARRA DO RIBEIRO/RS", "zip": "96790000", "cnpj": "93900363000164", "brand": "PETROBRAS DISTRIBUIDORA S.A.", "company_name": "GROSS  VENCATO & CIA LTDA", "address": "ESTRADA BR 116  S/N KM 336", "formatted_address": "BR-116, Barra do Ribeiro - RS, Brasil", "location": {"lat": -30.394432, "lng": -51.439549}}, {"city": "PELOTAS/RS", "zip": "96020000", "cnpj": "01989053000140", "brand": "IPIRANGA", "company_name": "HUGO CARLOS LANG FILHO & CIA. LTDA.", "address": "RUA GENERAL OS\u00d3RIO  1052", "formatted_address": "Rua General Os\u00f3rio, 1052 - Centro, Pelotas - RS, Brasil", "location": {"lat": -31.7601644, "lng": -52.3400304}}, {"city": "SANTA MARIA/RS", "zip": "97095080", "cnpj": "90923020000127", "brand": "IPIRANGA", "company_name": "HUBNER & CIA LTDA", "address": "AVENIDA JOAO LUIZ POZZOBON  2145", "formatted_address": "Avenida Jo\u00e3o Luiz Pozzobom, 2145 - Km Tr\u00eas, Santa Maria - RS, 97095-465, Brasil", "location": {"lat": -29.6936709, "lng": -53.7819721}}, {"city": "CAXIAS DO SUL/RS", "zip": "95020412", "cnpj": "88627773000143", "brand": "IPIRANGA", "company_name": "CENTENARIO COMERCIO DE COMBUST\u00cdVEIS E CONVENIENCIAS LTDA", "address": "RUA BENTO GON\u00c7ALVES  3563", "formatted_address": "Rua Bento Gon\u00e7alves, 3563 - Centro, Caxias do Sul - RS, Brasil", "location": {"lat": -29.1660404, "lng": -51.1976581}}, {"city": "PORTO ALEGRE/RS", "zip": "91330380", "cnpj": "11385268000105", "brand": "IPIRANGA", "company_name": "POSTO DA PRA\u00c7A OURO NEGRO COM\u00c9RCIO DE COMBUST\u00cdVEIS E SERVI\u00c7OS LTDA.", "address": "PRACA LIMA DUARTE  9", "formatted_address": "Pra\u00e7a Lima Duarte, 9 - Ch\u00e1cara das Pedras, Porto Alegre - RS, Brasil", "location": {"lat": -30.0350901, "lng": -51.1648795}}, {"city": "PORTO ALEGRE/RS", "zip": "90200000", "cnpj": "02315978000178", "brand": "IPIRANGA", "company_name": "ETNA COM\u00c9RCIO A VAREJO DE COMBUST\u00cdVEIS LTDA", "address": "AVENIDA DOS ESTADOS  75", "formatted_address": "Avenida dos Estados, 75 - S\u00e3o Jo\u00e3o, Porto Alegre - RS, Brasil", "location": {"lat": -29.9966753, "lng": -51.189614}}, {"city": "PORTO ALEGRE/RS", "zip": "90820080", "cnpj": "05940676000189", "brand": "IPIRANGA", "company_name": "D\u00bfCRISTAL COM\u00c9RCIO DE COMBUST\u00cdVEIS LTDA.", "address": "AVENIDA CHUI  380", "formatted_address": "Avenida Chu\u00ed, 380 - Cristal, Porto Alegre - RS, Brasil", "location": {"lat": -30.0840875, "lng": -51.240353}}, {"city": "PORTO ALEGRE/RS", "zip": "91340000", "cnpj": "10337187000177", "brand": "IPIRANGA", "company_name": "COMERCIAL DE COMBUST\u00cdVEL CAMINHO VERDE LTDA.", "address": "AVENIDA JO\u00c3O WALLIG  724", "formatted_address": "Avenida Jo\u00e3o Wallig, 724 - Passo d'Areia, Porto Alegre - RS, 91340-001, Brasil", "location": {"lat": -30.0189421, "lng": -51.1641361}}, {"city": "CANOAS/RS", "zip": "92010013", "cnpj": "08197100000161", "brand": "IPIRANGA", "company_name": "AUTO POSTO NONEMACHER CANOAS LTDA.", "address": "AVENIDA GETULIO VARGAS  7500", "formatted_address": "Avenida Get\u00falio Vargas, 7500 - Centro, Canoas - RS, Brasil", "location": {"lat": -29.9005756, "lng": -51.1765522}}, {"city": "CAXIAS DO SUL/RS", "zip": "95034000", "cnpj": "92360726000153", "brand": "IPIRANGA", "company_name": "POSTO DE SERVI\u00c7OS ONZI LTDA.", "address": "RUA MOREIRA CESAR  1920", "formatted_address": "Rua Moreira C\u00e9sar, 1920 - Pio X, Caxias do Sul - RS, Brasil", "location": {"lat": -29.1593819, "lng": -51.1857749}}, {"city": "TRAMANDAI/RS", "zip": "95590000", "cnpj": "03121899000199", "brand": "IPIRANGA", "company_name": "AUTO POSTO SAN MARINO LTDA", "address": "AVENIDA FERNANDES BASTOS  281", "formatted_address": "Avenida Fernandes Bastos, 281 - TRAMANDA\u00cd, Tramanda\u00ed - RS, 95590-000, Brasil", "location": {"lat": -29.9956233, "lng": -50.1477947}}, {"city": "PELOTAS/RS", "zip": "96020260", "cnpj": "04991434000151", "brand": "IPIRANGA", "company_name": "ABASTECEDORA DE COMBUST\u00cdVEIS DOM JOAQUIM LTDA", "address": "AVENIDA DOM JOAQUIM  510", "formatted_address": "Avenida Dom Joaquim, 510 - Tres Vendas, Pelotas - RS, 96020-260, Brasil", "location": {"lat": -31.7467353, "lng": -52.3345282}}, {"city": "SAPIRANGA/RS", "zip": "93800000", "cnpj": "96735022000500", "brand": "IPIRANGA", "company_name": "AUTO SERVI\u00c7O LINDOLFO COLLOR LTDA.", "address": "AVENIDA 20 DE SETEMBRO  3569", "formatted_address": "Avenida 20 de Setembro, 3569, Sapiranga - RS, 93800-000, Brasil", "location": {"lat": -29.6364368, "lng": -51.0099056}}, {"city": "PORTO ALEGRE/RS", "zip": "90220004", "cnpj": "93489243004103", "brand": "IPIRANGA", "company_name": "COMERCIAL BUFFON COMBUST\u00cdVEIS E TRANSPORTES LTDA", "address": "AVENIDA FARRAPOS  361", "formatted_address": "Avenida Farrapos, 361 - Floresta, Porto Alegre - RS, 90220-004, Brasil", "location": {"lat": -30.0254448, "lng": -51.21547469999999}}, {"city": "CARLOS BARBOSA/RS", "zip": "95185000", "cnpj": "88587217000190", "brand": "IPIRANGA", "company_name": "POSTO DO GUERRA COM\u00c9RCIO DE COMBUST\u00cdVEIS LTDA.", "address": "RUA BUARQUE DE MACEDO  1315", "formatted_address": "Rua Buarque de Macedo, 1315 - Ponte S\u00eaca, Carlos Barbosa - RS, 95185-000, Brasil", "location": {"lat": -29.3118139, "lng": -51.4972666}}, {"city": "ERECHIM/RS", "zip": "99700000", "cnpj": "88437231000108", "brand": "IPIRANGA", "company_name": "JOAO MAURICIO JOHANN & CIA LTDA", "address": "RUA WASHINGTON LUIS  124 0", "formatted_address": "Erechim - RS, Brasil", "location": {"lat": -27.6349085, "lng": -52.2737365}}, {"city": "PORTO ALEGRE/RS", "zip": "91010005", "cnpj": "87091997000110", "brand": "IPIRANGA", "company_name": "ABASTECEDORA FARROUPILHA LTDA", "address": "AVENIDA ASSIS BRASIL  1745", "formatted_address": "Avenida Assis Brasil, 1745 - Passo d'Areia, Porto Alegre - RS, 91010-004, Brasil", "location": {"lat": -30.0113436, "lng": -51.1700616}}, {"city": "PASSO FUNDO/RS", "zip": "99010121", "cnpj": "02888685000180", "brand": "IPIRANGA", "company_name": "AUTO POSTO SETE DE SETEMBRO LTDA.", "address": "AVENIDA SETE DE SETEMBRO  569", "formatted_address": "Avenida Sete de Setembro, 569 - Centro, Passo Fundo - RS, Brasil", "location": {"lat": -28.2564076, "lng": -52.4163216}}, {"city": "BENTO GONCALVES/RS", "zip": "95700000", "cnpj": "02461955000171", "brand": "IPIRANGA", "company_name": "ABASTECEDORA MONACO LTDA", "address": "RUA SALDANHA MARINHO  862", "formatted_address": "Rua Saldanha Marinho, 862, Bento Gon\u00e7alves - RS, 95700-000, Brasil", "location": {"lat": -29.1672771, "lng": -51.5114788}}, {"city": "PASSO FUNDO/RS", "zip": "99050000", "cnpj": "07608132000140", "brand": "IPIRANGA", "company_name": "POSTO DE COMBUST\u00cdVEIS BROCK & CIFRA LTDA.", "address": "AVENIDA BRASIL LESTE  85", "formatted_address": "Avenida Brasil Leste, 85 - Petr\u00f3polis, Passo Fundo - RS, Brasil", "location": {"lat": -28.2414496, "lng": -52.3799289}}, {"city": "CAXIAS DO SUL/RS", "zip": "95020460", "cnpj": "87819470000160", "brand": "IPIRANGA", "company_name": "AUTO POSTO TONOLLI LTDA", "address": "RUA ALFREDO CHAVES  1234", "formatted_address": "Rua Alfredo Chaves, 1234 - Centro, Caxias do Sul - RS, 95020-460, Brasil", "location": {"lat": -29.1739731, "lng": -51.175808}}, {"city": "CAXIAS DO SUL/RS", "zip": "95032440", "cnpj": "02366978000105", "brand": "IPIRANGA", "company_name": "POSTO DE SERVI\u00c7OS CITISSERA LTDA.", "address": "AVENIDA RUBEM BENTO ALVES  6765", "formatted_address": "Avenida Rubem Bento Alves, 6765 - Santa Catarina, Caxias do Sul - RS, 95032-440, Brasil", "location": {"lat": -29.1492857, "lng": -51.186106}}, {"city": "GRAVATAI/RS", "zip": "94040700", "cnpj": "97270060000166", "brand": "IPIRANGA", "company_name": "POSTO DE COMBUSTIVEIS RADAR LTDA", "address": "RODOVIA RS 118  834", "formatted_address": "RS-118, 834 - COHAB C, Gravata\u00ed - RS, Brasil", "location": {"lat": -29.9383968, "lng": -51.0150671}}, {"city": "CAPAO DA CANOA/RS", "zip": "95555000", "cnpj": "07839890000179", "brand": "PETROBRAS DISTRIBUIDORA S.A.", "company_name": "JOECIR M. CIRTOLI E CIA. LTDA.", "address": "AVENIDA CENTRAL  1930", "formatted_address": "Avenida Central, 1930, Cap\u00e3o da Canoa - RS, 95555-000, Brasil", "location": {"lat": -29.7513037, "lng": -50.0116612}}, {"city": "BENTO GONCALVES/RS", "zip": "95700000", "cnpj": "18117533000113", "brand": "PETROBRAS DISTRIBUIDORA S.A.", "company_name": "POSTO SHOPPING S T LTDA EPP", "address": "RUA SENADOR JOAQUIM P SALGADO FILHO  450", "formatted_address": "Rua Senador Joaquim Pedro Salgado Filho, 450 - S\u00e3o Bento, Bento Gon\u00e7alves - RS, 95700-000, Brasil", "location": {"lat": -29.171608, "lng": -51.51014929999999}}, {"city": "MONTENEGRO/RS", "zip": "95780000", "cnpj": "04895663000172", "brand": "PETROBRAS DISTRIBUIDORA S.A.", "company_name": "SAGAS COMERCIO DE OLEOS E COMBUSTIVEIS LTDA", "address": "ESTRADA MAURICIO CARDOSO  2440", "formatted_address": "Rodovia Maur\u00edcio Cardoso, 2440 - Bela Vista, Montenegro - RS, 95780-000, Brasil", "location": {"lat": -29.6817489, "lng": -51.4681434}}, {"city": "ESTEIO/RS", "zip": "93265000", "cnpj": "07473735008913", "brand": "PETROBRAS DISTRIBUIDORA S.A.", "company_name": "DITRENTO POSTOS E LOGISTICA LTDA", "address": "RUA RIO GRANDE  930", "formatted_address": "Rua Rio Grande, 930 - Centro, Esteio - RS, Brasil", "location": {"lat": -29.8471975, "lng": -51.16268669999999}}, {"city": "RIO GRANDE/RS", "zip": "96202090", "cnpj": "93489243002917", "brand": "IPIRANGA", "company_name": "COMERCIAL BUFFON COMBUST\u00cdVEIS E TRANSPORTES LTDA", "address": "AVENIDA SANTOS DUMONT  46", "formatted_address": "Avenida Santos Dumont, 46 - Vila Juncao, Rio Grande - RS, 96202-090, Brasil", "location": {"lat": -32.0544794, "lng": -52.1275323}}, {"city": "ESTEIO/RS", "zip": "93260030", "cnpj": "07045622000266", "brand": "IPIRANGA", "company_name": "DISTRIBUIDORA DE COMBUST\u00cdVEIS SAVAR LTDA.", "address": "RUA FERNANDO FERRARI  1087", "formatted_address": "Rua Fernando Ferrari, 1087 - Centro, Esteio - RS, 93260-030, Brasil", "location": {"lat": -29.8484319, "lng": -51.17232079999999}}, {"city": "TORRES/RS", "zip": "95560000", "cnpj": "89639751000247", "brand": "IPIRANGA", "company_name": "COMERCIAL DE COMBUSTIVEIS DENARDI LTDA.", "address": "AVENIDA BARAO DO RIO BRANCO  617", "formatted_address": "Avenida Bar\u00e3o do Rio Branco, 617, Torres - RS, 95560-000, Brasil", "location": {"lat": -29.3360538, "lng": -49.7320363}}, {"city": "HORIZONTINA/RS", "zip": "98920000", "cnpj": "05425070000105", "brand": "IPIRANGA", "company_name": "ELUF COMERCIO DE COMBUSTIVEIS LTDA", "address": "RUA DAHNE DE ABREU  922", "formatted_address": "Rua Dahne de Abreu, 922, Horizontina - RS, 98920-000, Brasil", "location": {"lat": -27.6241588, "lng": -54.3034778}}, {"city": "NOVO HAMBURGO/RS", "zip": "93310240", "cnpj": "07704140000190", "brand": "IPIRANGA", "company_name": "POSTO DE COMBUST\u00cdVEIS BUDA LTDA.", "address": "RUA JOSE DO PATROCINIO  582", "formatted_address": "Rua Jos\u00e9 do Patroc\u00ednio, 582 - Rio Branco, Novo Hamburgo - RS, Brasil", "location": {"lat": -29.6845417, "lng": -51.13823600000001}}, {"city": "SAO LEOPOLDO/RS", "zip": "93040290", "cnpj": "00708225000105", "brand": "IPIRANGA", "company_name": "POSTO DE COMBUSTIVEIS DO AIRTON LTDA", "address": "AVENIDA FEITORIA  1990", "formatted_address": "Avenida Feitoria, 1990 - S\u00e3o Jos\u00e9, S\u00e3o Leopoldo - RS, Brasil", "location": {"lat": -29.7654133, "lng": -51.1161713}}, {"city": "PELOTAS/RS", "zip": "96010280", "cnpj": "11466683000193", "brand": "IPIRANGA", "company_name": "DE \u00c1VILA & FARIAS LTDA.", "address": "RUA ALMIRANTE  BARROSO  2080", "formatted_address": "Rua Almirante Barroso, 2080 - Centro, Pelotas - RS, 96010-280, Brasil", "location": {"lat": -31.7691691, "lng": -52.336561}}, {"city": "MONTENEGRO/RS", "zip": "95780000", "cnpj": "10427500000168", "brand": "IPIRANGA", "company_name": "POSTO WEBER LTDA.", "address": "RUA OSWALDO ARANHA  1641", "formatted_address": "Rua Osvaldo Aranha, 1641 - Centro, Montenegro - RS, 95780-000, Brasil", "location": {"lat": -29.685043, "lng": -51.4585823}}, {"city": "LAJEADO/RS", "zip": "95900000", "cnpj": "01552252000358", "brand": "IPIRANGA", "company_name": "FALEIRO LTDA.", "address": "AVENIDA SENADOR ALBERTO PASQUALINI  1351", "formatted_address": "Avenida Senador Alberto Pasqualini, 1351 - S\u00e3o Crist\u00f3v\u00e3o, Lajeado - RS, 95900-000, Brasil", "location": {"lat": -29.4492758, "lng": -51.9645581}}, {"city": "SANTA CRUZ DO SUL/RS", "zip": "96820000", "cnpj": "95434809000138", "brand": "IPIRANGA", "company_name": "PFLUG  & CIA LTDA.", "address": "RUA GASPAR SILVEIRA MARTINS  1393 0", "formatted_address": "Rua Gaspar Silveira Martins, 1393 - Margarida-Aurora, Santa Cruz do Sul - RS, 96810-097, Brasil", "location": {"lat": -29.7124297, "lng": -52.42306749999999}}, {"city": "ERECHIM/RS", "zip": "99700000", "cnpj": "89425680000107", "brand": "IPIRANGA", "company_name": "BERVIAN & GUERRA LTDA.", "address": "AVENIDA PEDRO PINTO DE SOUZA  558", "formatted_address": "Avenida Pedro Pinto de Souza, 558 - Centro, Erechim - RS, 99700-000, Brasil", "location": {"lat": -27.640553, "lng": -52.2755766}}, {"city": "PELOTAS/RS", "zip": "96010160", "cnpj": "87393518000110", "brand": "IPIRANGA", "company_name": "JOSE HENRIQUE SCHAUN", "address": "RUA TIRADENTES  1994 0", "formatted_address": "Rua Tiradentes, 1994 - Porto, Pelotas - RS, 96075-765, Brasil", "location": {"lat": -31.7731946, "lng": -52.3361185}}, {"city": "PASSO FUNDO/RS", "zip": "99070000", "cnpj": "92038074000135", "brand": "IPIRANGA", "company_name": "VVA ALBINO MICHELETTO & CIA LTDA", "address": "AVENIDA PRESIDENTE VARGAS  230", "formatted_address": "Avenida Presidente Vargas, 230 - Lucas Araujo, Passo Fundo - RS, Brasil", "location": {"lat": -28.2753841, "lng": -52.381967}}, {"city": "SAPIRANGA/RS", "zip": "93800000", "cnpj": "96735022000179", "brand": "IPIRANGA", "company_name": "AUTO SERVI\u00c7O LINDOLFO COLLOR LTDA.", "address": "RODOVIA 239  4020", "formatted_address": "Rodovia Rs 239, 4020, Sapiranga - RS, 93800-000, Brasil", "location": {"lat": -29.6426976, "lng": -50.9883098}}, {"city": "IVOTI/RS", "zip": "93900000", "cnpj": "13586691000107", "brand": "IPIRANGA", "company_name": "AUTO POSTO KRAFTSTOFF LTDA", "address": "AVENIDA CAPIVARA  963 TERREO", "formatted_address": "Ivoti - RS, Brasil", "location": {"lat": -29.5999626, "lng": -51.1538353}}, {"city": "CAPAO DA CANOA/RS", "zip": "95555000", "cnpj": "18250924000373", "brand": "IPIRANGA", "company_name": "LOPES E LOPES COMERCIO DE COMBUSTIVEIS LTDA", "address": "AV RS 407  1635", "formatted_address": "RS-407, 1635, Cap\u00e3o da Canoa - RS, 95555-000, Brasil", "location": {"lat": -29.7643799, "lng": -50.03238169999999}}, {"city": "CACHOEIRA DO SUL/RS", "zip": "96508010", "cnpj": "01958174000477", "brand": "IPIRANGA", "company_name": "COMERCIAL DE COMBUST\u00cdVEIS MINEIRO LTDA.", "address": "RUA SETE DE SETEMBRO  860", "formatted_address": "Rua Sete de Setembro, 860 - Centro, Cachoeira do Sul - RS, 96508-010, Brasil", "location": {"lat": -30.0439396, "lng": -52.8946485}}, {"city": "PARAI/RS", "zip": "95360000", "cnpj": "01769951000192", "brand": "IPIRANGA", "company_name": "ADALGIR BAGGIO", "address": "AVENIDA PRESIDENTE CASTELO BRANCO  992", "formatted_address": "Para\u00ed - RS, Brasil", "location": {"lat": -28.5968781, "lng": -51.79011149999999}}, {"city": "IGREJINHA/RS", "zip": "95650000", "cnpj": "14977121000100", "brand": "IPIRANGA", "company_name": "ABASTECEDORA DE COMBUST\u00cdVEL ROTA DA SERRA LTDA", "address": "RODOVIA RS 115  S/N KM 13", "formatted_address": "RS-115, 13, Igrejinha - RS, 95600-000, Brasil", "location": {"lat": -29.6162893, "lng": -50.80361}}, {"city": "PORTO ALEGRE/RS", "zip": "90690080", "cnpj": "07681536000169", "brand": "PETROBRAS DISTRIBUIDORA S.A.", "company_name": "MC BR COM\u00c9RCIO DE COMBUST\u00cdVEIS LTDA.", "address": "RUA JACOB VONTOBEL  331", "formatted_address": "Porto Alegre - RS, Brasil", "location": {"lat": -30.0346471, "lng": -51.2176584}}, {"city": "PORTO ALEGRE/RS", "zip": "91020000", "cnpj": "89992861000107", "brand": "IPIRANGA", "company_name": "GAUDERIOS COMERCIO DE COMBUSTIVEIS LTDA", "address": "AVENIDA SERTORIO  1700", "formatted_address": "Avenida Sert\u00f3rio, 1700 - S\u00e3o Jo\u00e3o, Porto Alegre - RS, Brasil", "location": {"lat": -30.0021913, "lng": -51.1881721}}, {"city": "MONTENEGRO/RS", "zip": "95780000", "cnpj": "92366855000230", "brand": "IPIRANGA", "company_name": "CENTRAL COM\u00c9RCIO DE COMBUST\u00cdVEIS LTDA.", "address": "RUA BUARQUE DE MACEDO  400", "formatted_address": "Rua Buarque de Macedo, 400 - Progresso, Montenegro - RS, 95780-000, Brasil", "location": {"lat": -29.6812692, "lng": -51.4578246}}, {"city": "GRAMADO/RS", "zip": "95670000", "cnpj": "07881468000181", "brand": "IPIRANGA", "company_name": "ALFA COM\u00c9RCIO DE COMBUST\u00cdVEIS LTDA.", "address": "AVENIDA BORGES DE MEDEIROS  1419", "formatted_address": "Avenida Borges de Medeiros, 1419 - Bairro Lago Negro, Gramado - RS, 95670-000, Brasil", "location": {"lat": -29.3896305, "lng": -50.8736938}}, {"city": "PORTO ALEGRE/RS", "zip": "91900000", "cnpj": "87061016000192", "brand": "IPIRANGA", "company_name": "DIOGA REVENDEDORA DE OLEOS E GASOLINA LTDA", "address": "AVENIDA WENCESLAU ESCOBAR  2898", "formatted_address": "Avenida Wenceslau Escobar, 2898 - Vila Concei\u00e7\u00e3o, Porto Alegre - RS, 91900-001, Brasil", "location": {"lat": -30.1132426, "lng": -51.25499199999999}}, {"city": "PORTO ALEGRE/RS", "zip": "90470001", "cnpj": "01268307000130", "brand": "IPIRANGA", "company_name": "FAURI COMERCIO DE COMBUSTIVEIS LTDA.", "address": "AVENIDA NILO PE\u00c7ANHA  95", "formatted_address": "Avenida Nilo Pe\u00e7anha, 95 - Petr\u00f3polis, Porto Alegre - RS, 90470-001, Brasil", "location": {"lat": -30.034548, "lng": -51.18510449999999}}, {"city": "CARAZINHO/RS", "zip": "99500000", "cnpj": "06954851000583", "brand": "IPIRANGA", "company_name": "ABASTECEDORA DE COMBUST\u00cdVEIS EDITH GUIOMAR LTDA.", "address": "AVENIDA FLORES DA CUNHA  28 A", "formatted_address": "Avenida Fl\u00f4res da Cunha, 28 - Oriental, Car\u00e0zinho - RS, 99500-000, Brasil", "location": {"lat": -28.2728773, "lng": -52.7695026}}, {"city": "TORRES/RS", "zip": "95563000", "cnpj": "01433908000151", "brand": "IPIRANGA", "company_name": "AUTO POSTO SAO JOAO LTDA", "address": "RODOVIA BR 101  1510 KM 02", "formatted_address": "BR-101, 1510, Torres - RS, 95560-000, Brasil", "location": {"lat": -29.3660962, "lng": -49.8144186}}, {"city": "SANTA MARIA/RS", "zip": "97105340", "cnpj": "91979286000154", "brand": "PETROBRAS DISTRIBUIDORA S.A.", "company_name": "COMERCIO DE COMBUSTIVEIS AIMORE LTDA", "address": "AVENIDA RORAIMA  2", "formatted_address": "Avenida Roraima, 2 - Camobi, Santa Maria - RS, Brasil", "location": {"lat": -29.702731, "lng": -53.7152413}}, {"city": "CHUI/RS", "zip": "96255000", "cnpj": "10636037000164", "brand": "IPIRANGA", "company_name": "WALID ALI SALEH ES SAID", "address": "AVENIDA URUGUAI  2122 CASA", "formatted_address": "Chu\u00ed - RS, Brasil", "location": {"lat": -33.6871306, "lng": -53.4599203}}, {"city": "SAO GABRIEL/RS", "zip": "97300000", "cnpj": "07004809000130", "brand": "IPIRANGA", "company_name": "POSTO BATOVI COMERCIAL RS COMB. E DERIVADOS LTDA.", "address": "RODOVIA BR 290  S/N KM 321", "formatted_address": "BR-290, 321, Rio Grande do Sul, 97300-000, Brasil", "location": {"lat": -30.3605643, "lng": -54.2590704}}, {"city": "GRAMADO/RS", "zip": "95670000", "cnpj": "06217421000155", "brand": "IPIRANGA", "company_name": "POSTO D. E. KAPPES II LTDA.", "address": "AVENIDA DAS HORT\u00caNSIAS  2177", "formatted_address": "Avenida das Hort\u00eansias, 2177 - Vila Prinstrop, Gramado - RS, 95670-000, Brasil", "location": {"lat": -29.3876542, "lng": -50.8839619}}, {"city": "LAJEADO/RS", "zip": "95900000", "cnpj": "08724271000100", "brand": "IPIRANGA", "company_name": "AUTO POSTO FASCINA LTDA.", "address": "AVENIDA SENADOR ALBERTO PASQUALINI  1351", "formatted_address": "Avenida Senador Alberto Pasqualini, 1351 - S\u00e3o Crist\u00f3v\u00e3o, Lajeado - RS, 95900-000, Brasil", "location": {"lat": -29.4492758, "lng": -51.9645581}}, {"city": "PORTO ALEGRE/RS", "zip": "90240650", "cnpj": "94846912000122", "brand": "RAIZEN", "company_name": "AUTO POSTO SOUZA REIS LTDA", "address": "RUA SOUZA REIS  443", "formatted_address": "Rua Souza R\u00e9is, 443 - S\u00e3o Jo\u00e3o, Porto Alegre - RS, 90240-650, Brasil", "location": {"lat": -30.003382, "lng": -51.1904054}}, {"city": "PORTO ALEGRE/RS", "zip": "90220000", "cnpj": "14809233000144", "brand": "IPIRANGA", "company_name": "POSTO DE COMBUSTIVEIS 4 Z LTDA", "address": "AVENIDA FARRAPOS  858", "formatted_address": "Avenida Farrapos, 858 - Floresta, Porto Alegre - RS, 90220-004, Brasil", "location": {"lat": -30.0218872, "lng": -51.21310649999999}}, {"city": "PASSO FUNDO/RS", "zip": "99070000", "cnpj": "88957824000103", "brand": "PETROBRAS DISTRIBUIDORA S.A.", "company_name": "TABACZINSKI E CIA LTDA.", "address": "AVENIDA PRESIDENTE VARGAS  2023", "formatted_address": "Avenida Presidente Vargas, 2023 - Lucas Araujo, Passo Fundo - RS, Brasil", "location": {"lat": -28.2740778, "lng": -52.3835052}}, {"city": "CAMPO BOM/RS", "zip": "93700000", "cnpj": "13104571000207", "brand": "IPIRANGA", "company_name": "POSTO DE COMBUST\u00cdVEIS ALLMANESS LTDA.", "address": "AVENIDA DOS ESTADOS  2980", "formatted_address": "Avenida Dos Estados, 2980 - A, Campo Bom - RS, Brasil", "location": {"lat": -29.674792, "lng": -51.06126889999999}}, {"city": "CANOAS/RS", "zip": "92200630", "cnpj": "94549110000150", "brand": "IPIRANGA", "company_name": "PIT STOP POSTO DE AUTO SERVI\u00c7O LTDA", "address": "AVENIDA GUILHERME SCHELL  1046", "formatted_address": "Avenida Guilherme Schell, 1046 - S\u00e3o Lu\u00eds, Canoas - RS, Brasil", "location": {"lat": -29.8931685, "lng": -51.17748520000001}}, {"city": "NOVO HAMBURGO/RS", "zip": "93320006", "cnpj": "08061478000133", "brand": "IPIRANGA", "company_name": "ABASTECEDORA DE COMBUSTIVEIS NOVO HAMBURGO LTDA", "address": "AVENIDA PEDRO ADAMS FILHO  4773", "formatted_address": "Avenida Pedro Adams Filho, 4773 - Industrial, Novo Hamburgo - RS, Brasil", "location": {"lat": -29.6902268, "lng": -51.1288683}}, {"city": "SAO LEOPOLDO/RS", "zip": "93010080", "cnpj": "00420642000220", "brand": "IPIRANGA", "company_name": "ECOLUBRI - COMBUSTIVEIS E LUBRIFICANTES LTDA. - ME.", "address": "RUA LINDOLFO COLLOR  298", "formatted_address": "Rua Lindolfo Collor, 298 - Centro, S\u00e3o Leopoldo - RS, Brasil", "location": {"lat": -29.7681024, "lng": -51.1434588}}, {"city": "BENTO GONCALVES/RS", "zip": "95700000", "cnpj": "91332395000266", "brand": "IPIRANGA", "company_name": "ABASTECEDORA DE COMBUST\u00cdVEIS ALV LTDA.", "address": "RUA MARECHAL HUMBERTO DE ALENCAR CASTELO BRANCO  64", "formatted_address": "Rua Marechal Humberto de Alen\u00e7ar Castelo Branco, 64 - Fenavinho, Bento Gon\u00e7alves - RS, 95700-000, Brasil", "location": {"lat": -29.1637031, "lng": -51.49492480000001}}, {"city": "PELOTAS/RS", "zip": "96030002", "cnpj": "01378099000122", "brand": "IPIRANGA", "company_name": "COM\u00c9RCIO DE COMBUST\u00cdVEIS AVENIDA LTDA", "address": "AVENIDA DUQUE DE CAXIAS  208", "formatted_address": "Avenida Duque de Caxias, 208 - COHAB Guabiroba, Pelotas - RS, Brasil", "location": {"lat": -31.76108959999999, "lng": -52.3605013}}, {"city": "CAMPO BOM/RS", "zip": "93700000", "cnpj": "96735022000411", "brand": "IPIRANGA", "company_name": "AUTO SERVI\u00c7O LINDOLFO COLLOR LTDA.", "address": "AVENIDA BRASIL  2243", "formatted_address": "Avenida Brasil, 2243 - Q, Campo Bom - RS, Brasil", "location": {"lat": -29.6786391, "lng": -51.065248}}, {"city": "CAXIAS DO SUL/RS", "zip": "95020172", "cnpj": "88632823000180", "brand": "IPIRANGA", "company_name": "POSTO DE SERVI\u00c7OS CAXIAS LTDA", "address": "RUA PINHEIRO MACHADO  2270", "formatted_address": "Rua Pinheiro Machado, 2270 - Nossa Senhora de Lourdes, Caxias do Sul - RS, 95020-172, Brasil", "location": {"lat": -29.1669597, "lng": -51.1843249}}, {"city": "PORTO ALEGRE/RS", "zip": "90160093", "cnpj": "08786193000160", "brand": "IPIRANGA", "company_name": "COMBUST\u00cdVEIS PEGASUS IPIRANGA LTDA.", "address": "AVENIDA IPIRANGA  2495", "formatted_address": "Avenida Ipiranga, 2495 - Praia de Belas, Porto Alegre - RS, Brasil", "location": {"lat": -30.0449791, "lng": -51.2080709}}, {"city": "PORTO ALEGRE/RS", "zip": "91010002", "cnpj": "08505310000250", "brand": "IPIRANGA", "company_name": "KLP COM\u00c9RCO DE COMBUST\u00cdVEIS LTDA.", "address": "AVENIDA ASSIS BRASIL  2827", "formatted_address": "Avenida Assis Brasil, 2827 - Passo d'Areia, Porto Alegre - RS, 91010-004, Brasil", "location": {"lat": -30.0106678, "lng": -51.1587123}}, {"city": "RIO GRANDE/RS", "zip": "96200340", "cnpj": "88059951000187", "brand": "IPIRANGA", "company_name": "RODA COMERCIAL DE PE\u00c7AS E DERIVADOS DE PETROLEO LTDA", "address": "AVENIDA SILVA PAES  17 0", "formatted_address": "Rua Silva Paes, 17 - Centro, Rio Grande - RS, 96200-340, Brasil", "location": {"lat": -32.0328065, "lng": -52.097949}}, {"city": "SAO LEOPOLDO/RS", "zip": "93040290", "cnpj": "05238312000151", "brand": "PETROBRAS DISTRIBUIDORA S.A.", "company_name": "ABASTECEDORA DE COMBUST\u00cdVEIS BR 116 LTDA.", "address": "AV. FEITORIA  600", "formatted_address": "Avenida Feitoria, 600 - S\u00e3o Jos\u00e9, S\u00e3o Leopoldo - RS, Brasil", "location": {"lat": -29.767794, "lng": -51.12972749999999}}, {"city": "FELIZ/RS", "zip": "95770000", "cnpj": "92668813000334", "brand": "IPIRANGA", "company_name": "POSTOS CHOPP\u00c3O LTDA", "address": "AVENIDA VOLUNTARIO DA PATRIA  12", "formatted_address": "Estrada Volunt\u00e1rios da P\u00e1tria, 12, Feliz - RS, 95770-000, Brasil", "location": {"lat": -29.45450499999999, "lng": -51.3079737}}, {"city": "CAMPO BOM/RS", "zip": "93700000", "cnpj": "20511463000125", "brand": "IPIRANGA", "company_name": "BENETI COMERCIAL DE COMBUSTIVEIS LTDA", "address": "AVENIDA ADRIANO DIAS  635", "formatted_address": "Avenida Adriano Dias, 635 - A, Campo Bom - RS, Brasil", "location": {"lat": -29.6744478, "lng": -51.05546469999999}}, {"city": "PORTO ALEGRE/RS", "zip": "91320000", "cnpj": "14169952000148", "brand": "IPIRANGA", "company_name": "POSTO DE SERVI\u00c7OS 3Z LTDA", "address": "AVENIDA SATURNINO DE BRITO  1018", "formatted_address": "Avenida Saturnino de Brito, 1018 - Vila Jardim, Porto Alegre - RS, Brasil", "location": {"lat": -30.0333308, "lng": -51.15136889999999}}, {"city": "RIO GRANDE/RS", "zip": "96205000", "cnpj": "93489243006742", "brand": "IPIRANGA", "company_name": "COMERCIAL BUFFON COMBUST\u00cdVEIS E TRANSPORTES LTDA", "address": "AVENIDA RIO GRANDE  512", "formatted_address": "Rua Visconde do Rio Grande, 512 - Cidade Nova, Rio Grande - RS, 96211-490, Brasil", "location": {"lat": -32.0373269, "lng": -52.1079985}}, {"city": "SAO MARCOS/RS", "zip": "95190000", "cnpj": "12996367000196", "brand": "IPIRANGA", "company_name": "POSTO DE COMBUSTIVEIS DI MARCO LTDA", "address": "RUA CARLOS GOMES  940", "formatted_address": "Rua Carlos Gomes, 940, S\u00e3o Marcos - RS, 95190-000, Brasil", "location": {"lat": -28.9678302, "lng": -51.06812919999999}}, {"city": "SANTA CRUZ DO SUL/RS", "zip": "96810170", "cnpj": "94129665000143", "brand": "IPIRANGA", "company_name": "R R THEISEN E CIA LTDA", "address": "RUA GALVAO COSTA  400", "formatted_address": "Rua Galv\u00e3o Costa, 400 - Centro, Santa Cruz do Sul - RS, 96810-198, Brasil", "location": {"lat": -29.7107228, "lng": -52.4249517}}, {"city": "PORTO ALEGRE/RS", "zip": "90110040", "cnpj": "11115559000183", "brand": "IPIRANGA", "company_name": "ABASTECEDORA DE COMBUST\u00cdVEIS SMR LTDA", "address": "AVENIDA BORGES DE MEDEIROS  2205", "formatted_address": "Avenida Borges de Medeiros, 2205 - Centro Hist\u00f3rico, Porto Alegre - RS, 90020-021, Brasil", "location": {"lat": -30.0465253, "lng": -51.22931209999999}}, {"city": "IGREJINHA/RS", "zip": "95650000", "cnpj": "07196526000138", "brand": "PETROBRAS DISTRIBUIDORA S.A.", "company_name": "ALLES BLAU PARTICIPA\u00c7\u00d5ES LTDA.", "address": "AVENIDA PRESIDENTE TANCREDO DE ALMEIDA NEVES  5450", "formatted_address": "Avenida Presidente Tancredo de Almeida Neves, 5450, Igrejinha - RS, 95650-000, Brasil", "location": {"lat": -29.5772853, "lng": -50.7896186}}, {"city": "CRUZ ALTA/RS", "zip": "98005160", "cnpj": "09625131000139", "brand": "IPIRANGA", "company_name": "COMERCIAL DE COMBUSTIVEIS 5R LTDA.", "address": "AVENIDA PRESIDENTE VARGAS  710", "formatted_address": "Avenida Presidente Vargas, 710 - Centro, Cruz Alta - RS, Brasil", "location": {"lat": -28.6438892, "lng": -53.60303500000001}}, {"city": "CARLOS BARBOSA/RS", "zip": "95185000", "cnpj": "04091956000369", "brand": "PETROBRAS DISTRIBUIDORA S.A.", "company_name": "POSTO DE COMBUSTIVEIS FIOI D NONI LTDA", "address": "RUA BUARQUE DE MACEDO  1205", "formatted_address": "Rua Buarque de Macedo, 1205 - Ponte S\u00eaca, Carlos Barbosa - RS, 95185-000, Brasil", "location": {"lat": -29.3123624, "lng": -51.4975838}}, {"city": "GUAIBA/RS", "zip": "92500000", "cnpj": "86914942000362", "brand": "PETROBRAS DISTRIBUIDORA S.A.", "company_name": "COM\u00c9RCIO DE COMBUST\u00cdVEIS DO IVAN LTDA", "address": "AVENIDA NESTOR MOURA JARDIM  1237", "formatted_address": "Avenida Nestor de Moura Jardim, 1237 - Nossa Senhora de Fatima, Gua\u00edba - RS, 92500-000, Brasil", "location": {"lat": -30.1171751, "lng": -51.3373482}}, {"city": "PORTO ALEGRE/RS", "zip": "90460200", "cnpj": "87086963000138", "brand": "IPIRANGA", "company_name": "LUIZ ANTONIO LO IACONO", "address": "AVENIDA IJUI  433", "formatted_address": "Avenida Iju\u00ed, 433 - Petr\u00f3polis, Porto Alegre - RS, 90460-200, Brasil", "location": {"lat": -30.0399386, "lng": -51.1868154}}, {"city": "CAXIAS DO SUL/RS", "zip": "95020172", "cnpj": "88614292000101", "brand": "PETROBRAS DISTRIBUIDORA S.A.", "company_name": "SOCIEDADE CAXIENSE DE AUTOMOVEIS S/A", "address": "RUA PINHEIRO MACHADO  1934 0", "formatted_address": "Rua Pinheiro Machado, 1934 - Nossa Senhora de Lourdes, Caxias do Sul - RS, 95020-171, Brasil", "location": {"lat": -29.1669945, "lng": -51.1809013}}, {"city": "PELOTAS/RS", "zip": "96025000", "cnpj": "07536636000100", "brand": "IPIRANGA", "company_name": "MERIDIONAL LOGISTICA LTDA.", "address": "AVENIDA   BRASIL  804", "formatted_address": "Avenida Brasil, 804 - Fragata, Pelotas - RS, Brasil", "location": {"lat": -31.7744442, "lng": -52.3528123}}, {"city": "IVOTI/RS", "zip": "93900000", "cnpj": "89717409000137", "brand": "IPIRANGA", "company_name": "SOCIEDADE  DE ONIBUS CAPIVARENSE LTDA", "address": "AVENIDA PRESIDENTE LUCENA  1525", "formatted_address": "Avenida Presidente Lucena, 1525 - Vista Alegre, Ivoti - RS, 93900-000, Brasil", "location": {"lat": -29.6169418, "lng": -51.1648904}}, {"city": "CAXIAS DO SUL/RS", "zip": "95012500", "cnpj": "73698193000170", "brand": "IPIRANGA", "company_name": "POSTO DELTHA COMERCIO DE COMB. E DERIV.LTDA.", "address": "AVENIDA RUBEM BENTO ALVES  785", "formatted_address": "Avenida Rubem Bento Alves, 785 - Santa Catarina, Caxias do Sul - RS, 95032-440, Brasil", "location": {"lat": -29.1528868, "lng": -51.15688859999999}}, {"city": "SANTO ANTONIO DA PATRULHA/RS", "zip": "95500000", "cnpj": "06954851000311", "brand": "IPIRANGA", "company_name": "ABASTECEDORA DE COMBUST\u00cdVEIS EDITH GUIOMAR LTDA.", "address": "RUA JO\u00c3O CARLOS BENFICA  29 1\u00b0 DISTRITO", "formatted_address": "Rua Jo\u00e3o Carlos Benfica, 29 - Menino Deus, Santo Ant\u00f4nio da Patrulha - RS, 95500-000, Brasil", "location": {"lat": -29.8363283, "lng": -50.5385934}}, {"city": "PORTO ALEGRE/RS", "zip": "91330000", "cnpj": "11108204000167", "brand": "PETROBRAS DISTRIBUIDORA S.A.", "company_name": "POSTO DE COMBUSTIVEIS NILO PALACE LTDA", "address": "AVENIDA DOUTOR NILO PECANHA  2281", "formatted_address": "Avenida Nilo Pe\u00e7anha, 2281 - Petr\u00f3polis, Porto Alegre - RS, 90470-001, Brasil", "location": {"lat": -30.0282949, "lng": -51.16961939999999}}, {"city": "PORTO ALEGRE/RS", "zip": "91900000", "cnpj": "15194430000169", "brand": "IPIRANGA", "company_name": "FBX COMERCIO DE COMBUSTIVEIS LTDA - ME", "address": "AVENIDA WENCESLAU ESCOBAR  2226", "formatted_address": "Avenida Wenceslau Escobar, 2226 - Cristal, Porto Alegre - RS, Brasil", "location": {"lat": -30.1039877, "lng": -51.2527134}}, {"city": "CRUZ ALTA/RS", "zip": "98040070", "cnpj": "14774741000134", "brand": "IPIRANGA", "company_name": "COM\u00c9RCIO DE COMBUSTIVEIS FAMA LTDA", "address": "RUA SATURNINO DE BRITO  418", "formatted_address": "Avenida Saturnino de Brito, 418 - Concei\u00e7\u00e3o, Cruz Alta - RS, 98040-070, Brasil", "location": {"lat": -28.6465018, "lng": -53.5959922}}, {"city": "CHARQUEADAS/RS", "zip": "96745000", "cnpj": "05141517000114", "brand": "IPIRANGA", "company_name": "FERREIRA & PERES LTDA.", "address": "AVENIDA BENTO GONCALVES  667", "formatted_address": "Avenida Bento Gon\u00e7alves, 667 - Vila Rosa, Charqueadas - RS, 96745-000, Brasil", "location": {"lat": -29.9550995, "lng": -51.625288}}, {"city": "ESTRELA/RS", "zip": "95880000", "cnpj": "11078080000203", "brand": "IPIRANGA", "company_name": "POSTO DA DANI LTDA.", "address": "AVENIDA RIO BRANCO  845", "formatted_address": "Avenida Rio Branco, 845 - Dos Estados, Estr\u00eala - RS, 95880-000, Brasil", "location": {"lat": -29.4901779, "lng": -51.9599409}}, {"city": "NOVO HAMBURGO/RS", "zip": "93310002", "cnpj": "08061478000214", "brand": "IPIRANGA", "company_name": "ABASTECEDORA DE COMBUSTIVEIS NOVO HAMBURGO LTDA", "address": "RUA JOAQUIM NABUCO  1815", "formatted_address": "Rua Joaquim Nabuco, 1815 - Centro, Novo Hamburgo - RS, Brasil", "location": {"lat": -29.6814971, "lng": -51.1195093}}, {"city": "PORTO ALEGRE/RS", "zip": "91010007", "cnpj": "03249030000124", "brand": "RAIZEN", "company_name": "KR COMERCIO DE COMBUSTIVEIS LTDA", "address": "AVENIDA ASSIS BRASIL  3301", "formatted_address": "Avenida Assis Brasil, 3301 - Passo d'Areia, Porto Alegre - RS, 91010-004, Brasil", "location": {"lat": -30.0104933, "lng": -51.1531604}}, {"city": "NOVO HAMBURGO/RS", "zip": "93520300", "cnpj": "91666180000109", "brand": "IPIRANGA", "company_name": "POSTO DE COMBUST\u00cdVEIS GRIN LTDA", "address": "RUA ALUISIO DE AZEVEDO  406", "formatted_address": "Rua Alu\u00edsio de Azevedo, 406 - Vila Nova, Novo Hamburgo - RS, Brasil", "location": {"lat": -29.6729399, "lng": -51.1174009}}, {"city": "CAXIAS DO SUL/RS", "zip": "95052550", "cnpj": "17969124000182", "brand": "IPIRANGA", "company_name": "POSTO TRI COMERCIO DE COMBUSTIVEIS LTDA", "address": "RUA ATILIO ANDREAZZA  785", "formatted_address": "Rua At\u00edlio Andreaza, 785 - Sagrada Fam\u00edlia, Caxias do Sul - RS, Brasil", "location": {"lat": -29.1379421, "lng": -51.1582158}}, {"city": "SARANDI/RS", "zip": "99560000", "cnpj": "87712725000190", "brand": "PETROBRAS DISTRIBUIDORA S.A.", "company_name": "AUTO ABASTECEDORA PAPAGAIO LTDA", "address": "RODOVIA BR 386  S/N KM 135", "formatted_address": "Rodovia Br-386, 135, Sarandi - RS, 99560-000, Brasil", "location": {"lat": -27.952327, "lng": -52.9161434}}, {"city": "BENTO GONCALVES/RS", "zip": "95700000", "cnpj": "04563781000183", "brand": "IPIRANGA", "company_name": "POSTO RAVANELLO LTDA.", "address": "RUA 13 DE MAIO  1000", "formatted_address": "Rua Treze de Maio - Centro, Bento Gon\u00e7alves - RS, 95700-000, Brasil", "location": {"lat": -29.1657252, "lng": -51.5130624}}]